[
    {
        "description": "01",
        "locationID": "286de869-cdea-462a-bc50-1da101ea9c33",
        "name": "BRZEZINY KOLONIA",
        "officialNumber": "0000000000662",
        "stopRadius": 30,
        "gpsLocation": {
            "type": "Point",
            "coordinates": [
                19.1014621131362,
                50.750355042055
            ]
        }
    },
    {
        "description": "01",
        "locationID": "a5a5aa59-5a41-4c49-9b33-4bf15ec5c723",
        "name": "CMENTARZ MIRÓW",
        "officialNumber": "0000000000994",
        "stopRadius": 30,
        "gpsLocation": {
            "type": "Point",
            "coordinates": [
                19.2182279406781,
                50.8210667877673
            ]
        }
    },
    {
        "description": "01",
        "locationID": "69c1098c-78a0-4248-994b-62144bf1e447",
        "name": "DYBOWSKIEGO",
        "officialNumber": "0000000001026",
        "stopRadius": 30,
        "gpsLocation": {
            "type": "Point",
            "coordinates": [
                19.1412292420864,
                50.8554885863882
            ]
        }
    },
    {
        "description": "01",
        "locationID": "a7679f74-b1cb-4df1-822b-3808ed1d296e",
        "name": "OCZYSZCZALNIA WARTA",
        "officialNumber": "0000000001280",
        "stopRadius": 30,
        "gpsLocation": {
            "type": "Point",
            "coordinates": [
                19.1623700207655,
                50.8220494853312
            ]
        }
    },
    {
        "description": "01",
        "locationID": "2c223cc7-ced8-49b3-8db6-a8def86897e3",
        "name": "IWASZKIEWICZA",
        "officialNumber": "0000000000594",
        "stopRadius": 30,
        "gpsLocation": {
            "type": "Point",
            "coordinates": [
                19.12053479627,
                50.8363064309902
            ]
        }
    },
    {
        "description": "02",
        "locationID": "c1d75cd6-1ff8-4474-9bd9-e8fb2dbbbc0c",
        "name": "ZAWODZIE - DŁUGA I",
        "officialNumber": "0000000000821",
        "stopRadius": 30,
        "gpsLocation": {
            "type": "Point",
            "coordinates": [
                19.1687151789665,
                50.7140694363965
            ]
        }
    },
    {
        "description": "04",
        "locationID": "e6e67f91-63e4-4284-b17f-68760d324e03",
        "name": "POLITECHNIKA",
        "officialNumber": "0000000000486",
        "stopRadius": 30,
        "gpsLocation": {
            "type": "Point",
            "coordinates": [
                19.1177925135466,
                50.8215173980257
            ]
        }
    },
    {
        "description": "01",
        "locationID": "f4c56e77-65a6-4b9d-a8f9-f2f5a4daa2dc",
        "name": "PIŁSUDSKIEGO",
        "officialNumber": "0000000000480",
        "stopRadius": 50,
        "gpsLocation": {
            "type": "Point",
            "coordinates": [
                19.12233710289,
                50.808263625356
            ]
        }
    },
    {
        "description": "02",
        "locationID": "6818b760-f5b7-4945-b608-910981e87723",
        "name": "ROLNICZA - CMENTARZ KULE",
        "officialNumber": "0000000000519",
        "stopRadius": 30,
        "gpsLocation": {
            "type": "Point",
            "coordinates": [
                19.1298803171151,
                50.8263163336978
            ]
        }
    },
    {
        "description": "01",
        "locationID": "75e206de-4496-4ccd-9bfe-04e97c318cf3",
        "name": "ALEJA POKOJU",
        "officialNumber": "0000000001230",
        "stopRadius": 30,
        "gpsLocation": {
            "type": "Point",
            "coordinates": [
                19.1436687111855,
                50.7848998878078
            ]
        }
    },
    {
        "description": "04",
        "locationID": "f294b12e-324e-4478-8baf-4ed7e8302734",
        "name": "",
        "officialNumber": "0000000001165",
        "stopRadius": 0,
        "gpsLocation": {
            "type": "Point",
            "coordinates": [
                19.1131666302681,
                50.8121067321282
            ]
        }
    },
    {
        "description": "01",
        "locationID": "943eb2d7-b901-46b1-8200-f3c6300e4417",
        "name": "CMENTARZ ŚW. ROCHA",
        "officialNumber": "0000000000172",
        "stopRadius": 30,
        "gpsLocation": {
            "type": "Point",
            "coordinates": [
                19.0862376146663,
                50.8176068995857
            ]
        }
    },
    {
        "description": "01",
        "locationID": "6cc9b2ce-3e76-45b0-a020-a28cd7e297fc",
        "name": "--- zmiana taryfy biletowej ---",
        "officialNumber": "",
        "stopRadius": 50,
        "gpsLocation": null
    },
    {
        "description": "Jadwigi",
        "locationID": "9972c2fe-ff3d-4a1a-b2ce-79f4f0ab8910",
        "name": "",
        "officialNumber": "0000000000171",
        "stopRadius": 0,
        "gpsLocation": {
            "type": "Point",
            "coordinates": [
                19.0860642492771,
                50.8176356750207
            ]
        }
    },
    {
        "description": "03",
        "locationID": "5ed931f8-5e86-459c-81f6-b6567c3d31fc",
        "name": "DWORZEC PKS",
        "officialNumber": "0000000000202",
        "stopRadius": 30,
        "gpsLocation": {
            "type": "Point",
            "coordinates": [
                19.1178087356977,
                50.8050777966288
            ]
        }
    },
    {
        "description": "Ikara",
        "locationID": "ca63b86d-4b77-480f-897a-78736cf0dfde",
        "name": "",
        "officialNumber": "0000000000639",
        "stopRadius": 0,
        "gpsLocation": {
            "type": "Point",
            "coordinates": [
                19.0662588179111,
                50.8577549074898
            ]
        }
    },
    {
        "description": "01",
        "locationID": "f1110660-88ec-4bbc-ad20-55b8196b88b3",
        "name": "HUTA STARA \"B\"",
        "officialNumber": "0000000000689",
        "stopRadius": 30,
        "gpsLocation": {
            "type": "Point",
            "coordinates": [
                19.1299840807915,
                50.7331108659545
            ]
        }
    },
    {
        "description": "03",
        "locationID": "d6f54bf6-2cb7-46a3-9e63-a56ee418fa7a",
        "name": "BACZYŃSKIEGO",
        "officialNumber": "0000000000122",
        "stopRadius": 30,
        "gpsLocation": {
            "type": "Point",
            "coordinates": [
                19.126926434166,
                50.8389411353618
            ]
        }
    },
    {
        "description": "03",
        "locationID": "e7229c04-9463-46a3-9e55-1fa3fb201a90",
        "name": "ESTAKADA",
        "officialNumber": "0000000000008",
        "stopRadius": 30,
        "gpsLocation": {
            "type": "Point",
            "coordinates": [
                19.1429391082227,
                50.785264879876
            ]
        }
    },
    {
        "description": "02",
        "locationID": "4bc31a36-9b6b-409f-85d1-597fdd2e9264",
        "name": "",
        "officialNumber": "0000000000704",
        "stopRadius": 0,
        "gpsLocation": {
            "type": "Point",
            "coordinates": [
                19.2497393488884,
                50.7745833052917
            ]
        }
    },
    {
        "description": "01",
        "locationID": "f9deaa3b-3dcf-4b20-83fb-bfeb1f398829",
        "name": "SŁOWIK - PRZEJAZD",
        "officialNumber": "0000000001091",
        "stopRadius": 30,
        "gpsLocation": {
            "type": "Point",
            "coordinates": [
                19.1748762130737,
                50.7499469300701
            ]
        }
    },
    {
        "description": "01",
        "locationID": "4af5957c-8247-4294-8d95-21e756837a19",
        "name": "BATALIONÓW CHŁOPSKICH",
        "officialNumber": "0000000001127",
        "stopRadius": 30,
        "gpsLocation": {
            "type": "Point",
            "coordinates": [
                19.1949927806854,
                50.8364960947807
            ]
        }
    },
    {
        "description": "02",
        "locationID": "f7e3ae57-c269-4889-85a2-301e79610ea1",
        "name": "POCZESNA - STRAŻACKA",
        "officialNumber": "0000000000785",
        "stopRadius": 30,
        "gpsLocation": {
            "type": "Point",
            "coordinates": [
                19.1588936001062,
                50.7160246212325
            ]
        }
    },
    {
        "description": "01",
        "locationID": "8aedd0a3-ce45-4e94-92f0-0a996c54cb2f",
        "name": "ŚW. ROCHA - SZKOŁA",
        "officialNumber": "0000000000516",
        "stopRadius": 30,
        "gpsLocation": {
            "type": "Point",
            "coordinates": [
                19.0648359060287,
                50.8337298571962
            ]
        }
    },
    {
        "description": "02",
        "locationID": "b3612c9f-1ca5-4649-ae5e-c295502cad84",
        "name": "",
        "officialNumber": "0000000001265",
        "stopRadius": 0,
        "gpsLocation": {
            "type": "Point",
            "coordinates": [
                19.2597627639771,
                50.8180508489085
            ]
        }
    },
    {
        "description": "02",
        "locationID": "6621388f-b0aa-4c76-bc5f-9c177d1be99e",
        "name": "",
        "officialNumber": "0000000000706",
        "stopRadius": 0,
        "gpsLocation": {
            "type": "Point",
            "coordinates": [
                19.2584216594696,
                50.7762726467432
            ]
        }
    },
    {
        "description": "03",
        "locationID": "5053c0ba-f9a9-4669-bcad-6aa435befd04",
        "name": "WIELKOBORSKA - PRZYCHODNIA",
        "officialNumber": "0000000001349",
        "stopRadius": 30,
        "gpsLocation": {
            "type": "Point",
            "coordinates": [
                19.0545301245888,
                50.8189682679715
            ]
        }
    },
    {
        "description": "02",
        "locationID": "98176420-d6ba-4f4a-bd9d-2b9c33cf790d",
        "name": "SCHILLERA",
        "officialNumber": "0000000000549",
        "stopRadius": 50,
        "gpsLocation": null
    },
    {
        "description": "03",
        "locationID": "844107a8-102c-41eb-836e-22ad10174156",
        "name": "",
        "officialNumber": "0000000001337",
        "stopRadius": 0,
        "gpsLocation": {
            "type": "Point",
            "coordinates": [
                19.2067328095436,
                50.8151462488668
            ]
        }
    },
    {
        "description": "02",
        "locationID": "cb30887f-e557-4ebd-b68f-cab4015212e3",
        "name": "MIRÓW",
        "officialNumber": "0000000001157",
        "stopRadius": 30,
        "gpsLocation": {
            "type": "Point",
            "coordinates": [
                19.2031172085455,
                50.8195907494135
            ]
        }
    },
    {
        "description": "00",
        "locationID": "2cd8d8f0-1a9e-460b-95ef-6662daf2752f",
        "name": "Zajezdnia Autobusowa Niepodległości",
        "officialNumber": "0000000001248",
        "stopRadius": 50,
        "gpsLocation": null
    },
    {
        "description": "02",
        "locationID": "249a89f5-676b-4654-8d54-49e3f2c6a00a",
        "name": "FILTROWA",
        "officialNumber": "0000000000218",
        "stopRadius": 30,
        "gpsLocation": {
            "type": "Point",
            "coordinates": [
                19.1812230066065,
                50.8166541149967
            ]
        }
    },
    {
        "description": "01",
        "locationID": "b21bd77e-a638-4b54-a642-cbbb84d6b101",
        "name": "WIELKOBORSKA",
        "officialNumber": "0000000000973",
        "stopRadius": 30,
        "gpsLocation": {
            "type": "Point",
            "coordinates": [
                19.0359351038933,
                50.81668415033
            ]
        }
    },
    {
        "description": "03",
        "locationID": "3243c09c-07ec-4689-9ac4-9f84742a8129",
        "name": "PLAC BIEGAŃSKIEGO",
        "officialNumber": "0000000000839",
        "stopRadius": 30,
        "gpsLocation": {
            "type": "Point",
            "coordinates": [
                19.1140805780103,
                50.812691414652
            ]
        }
    },
    {
        "description": "01",
        "locationID": "d1ec1b81-96dd-4bdf-ba79-c9d894eb3a16",
        "name": "KRĘCIWILK",
        "officialNumber": "0000000000348",
        "stopRadius": 30,
        "gpsLocation": {
            "type": "Point",
            "coordinates": [
                19.1827111499988,
                50.7635785897395
            ]
        }
    },
    {
        "description": "01",
        "locationID": "64defbae-46c8-4664-8bf5-91b2fcc85603",
        "name": "DWORZEC PKS",
        "officialNumber": "0000000000053",
        "stopRadius": 30,
        "gpsLocation": {
            "type": "Point",
            "coordinates": [
                19.1183567047119,
                50.8058737060313
            ]
        }
    },
    {
        "description": "01",
        "locationID": "3fc842eb-ff30-4953-a9c8-37a400d8e58a",
        "name": "WRZOSOWA - KŁADKA",
        "officialNumber": "0000000000806",
        "stopRadius": 30,
        "gpsLocation": {
            "type": "Point",
            "coordinates": [
                19.1532091902178,
                50.7472464404564
            ]
        }
    },
    {
        "description": "01",
        "locationID": "46973d5f-2609-46d5-a46a-33dc3f140633",
        "name": "MAZURY I",
        "officialNumber": "0000000000716",
        "stopRadius": 30,
        "gpsLocation": {
            "type": "Point",
            "coordinates": [
                19.087295383215,
                50.7214999784467
            ]
        }
    },
    {
        "description": "01",
        "locationID": "3b348312-600b-4d60-bff3-532d7c4a23f0",
        "name": "IKARA III",
        "officialNumber": "0000000000270",
        "stopRadius": 30,
        "gpsLocation": {
            "type": "Point",
            "coordinates": [
                19.0648251771927,
                50.8537157504149
            ]
        }
    },
    {
        "description": "03",
        "locationID": "899de426-6917-4d91-a8f6-fec76327c8de",
        "name": "",
        "officialNumber": "0000000000388",
        "stopRadius": 0,
        "gpsLocation": {
            "type": "Point",
            "coordinates": [
                19.0772370994091,
                50.7549258095636
            ]
        }
    },
    {
        "description": "01",
        "locationID": "29051d00-aa01-456d-bc93-8534c7826282",
        "name": "HUTNIKÓW",
        "officialNumber": "0000000000252",
        "stopRadius": 30,
        "gpsLocation": {
            "type": "Point",
            "coordinates": [
                19.1559948027134,
                50.7953320251538
            ]
        }
    },
    {
        "description": "05",
        "locationID": "3ec3307e-2bb0-4d48-9768-b86d478bb44e",
        "name": "DĄBIE",
        "officialNumber": "0000000000223",
        "stopRadius": 30,
        "gpsLocation": {
            "type": "Point",
            "coordinates": [
                19.1602344958525,
                50.7931544788602
            ]
        }
    },
    {
        "description": "02",
        "locationID": "0ae3975a-9896-4a4b-8bcf-8559d0a09900",
        "name": "POCZESNA - BOREK",
        "officialNumber": "0000000000788",
        "stopRadius": 30,
        "gpsLocation": {
            "type": "Point",
            "coordinates": [
                19.1545557975769,
                50.7029524165698
            ]
        }
    },
    {
        "description": "02",
        "locationID": "7e618420-09b4-4987-8a78-87d476f8d6d8",
        "name": "JESIENNA",
        "officialNumber": "0000000000278",
        "stopRadius": 30,
        "gpsLocation": {
            "type": "Point",
            "coordinates": [
                19.1418041650151,
                50.7701965090496
            ]
        }
    },
    {
        "description": "04",
        "locationID": "7e182190-3afe-471d-a97d-de62753e5174",
        "name": "ZAJEZDNIA MPK",
        "officialNumber": "0000000001170",
        "stopRadius": 30,
        "gpsLocation": {
            "type": "Point",
            "coordinates": [
                19.1356261074543,
                50.7870577211569
            ]
        }
    },
    {
        "description": "01",
        "locationID": "c8eaee95-bbf3-4190-9e6c-231893103e2f",
        "name": "NAŁKOWSKIEGO",
        "officialNumber": "0000000001284",
        "stopRadius": 30,
        "gpsLocation": {
            "type": "Point",
            "coordinates": [
                19.1572192311287,
                50.8441646437642
            ]
        }
    },
    {
        "description": "01",
        "locationID": "abbd0fa8-b7b6-41d0-a4e7-58ae5de4cb1b",
        "name": "ŚW. BARBARY - SZPITAL",
        "officialNumber": "0000000000575",
        "stopRadius": 30,
        "gpsLocation": {
            "type": "Point",
            "coordinates": [
                19.0951956003896,
                50.8058567899072
            ]
        }
    },
    {
        "description": "04",
        "locationID": "3f044bc3-f5bd-42bf-a309-8690fbff2a98",
        "name": "RAKOWSKA",
        "officialNumber": "0000000001184",
        "stopRadius": 30,
        "gpsLocation": {
            "type": "Point",
            "coordinates": [
                19.1548079252243,
                50.7721017623763
            ]
        }
    },
    {
        "description": "01",
        "locationID": "151d9dcc-8088-448c-90a5-f94536b08063",
        "name": "MIRÓW",
        "officialNumber": "0000000000421",
        "stopRadius": 30,
        "gpsLocation": {
            "type": "Point",
            "coordinates": [
                19.2022280509045,
                50.8188930581218
            ]
        }
    },
    {
        "description": "03",
        "locationID": "f1265060-b05f-45eb-a69a-c7fe9f5eca16",
        "name": "ZAJEZDNIA MPK",
        "officialNumber": "0000000001169",
        "stopRadius": 30,
        "gpsLocation": {
            "type": "Point",
            "coordinates": [
                19.1357508301735,
                50.7870288941771
            ]
        }
    },
    {
        "description": "01",
        "locationID": "8fef6bcd-4852-40ab-bd47-b81a255e1500",
        "name": "ŻABINIEC",
        "officialNumber": "0000000000640",
        "stopRadius": 30,
        "gpsLocation": {
            "type": "Point",
            "coordinates": [
                19.0660174190998,
                50.8575728947337
            ]
        }
    },
    {
        "description": "01",
        "locationID": "776ced7e-ef06-4490-bd84-5bc928a65d84",
        "name": "PORAZIŃSKIEJ",
        "officialNumber": "0000000001074",
        "stopRadius": 30,
        "gpsLocation": {
            "type": "Point",
            "coordinates": [
                19.1539335250854,
                50.8460690940722
            ]
        }
    },
    {
        "description": "03",
        "locationID": "9ff1b0a3-a67f-4eaf-a183-c65f41e1e9cf",
        "name": "",
        "officialNumber": "0000000001333",
        "stopRadius": 0,
        "gpsLocation": {
            "type": "Point",
            "coordinates": [
                19.2202913761139,
                50.8124499269461
            ]
        }
    },
    {
        "description": "01",
        "locationID": "003e1b39-3bd0-4f01-add1-4c9f1b000e7b",
        "name": "STREFOWA I",
        "officialNumber": "0000000001357",
        "stopRadius": 30,
        "gpsLocation": {
            "type": "Point",
            "coordinates": [
                19.1703855587175,
                50.8094803438789
            ]
        }
    },
    {
        "description": "01",
        "locationID": "cb24fb19-b5cc-489b-93fe-642ca14da058",
        "name": "MARKET OBI",
        "officialNumber": "0000000000399",
        "stopRadius": 30,
        "gpsLocation": {
            "type": "Point",
            "coordinates": [
                19.104720055791,
                50.8235303330349
            ]
        }
    },
    {
        "description": "02",
        "locationID": "90900a21-c0de-4b21-9052-909116ee727f",
        "name": "JASNA GÓRA",
        "officialNumber": "0000000000277",
        "stopRadius": 30,
        "gpsLocation": {
            "type": "Point",
            "coordinates": [
                19.0966103180798,
                50.8100763306006
            ]
        }
    },
    {
        "description": "01",
        "locationID": "63a9509f-6095-434b-bd1c-2ac7fb25b94c",
        "name": "GAZOWNIA",
        "officialNumber": "0000000000043",
        "stopRadius": 30,
        "gpsLocation": {
            "type": "Point",
            "coordinates": [
                19.1714362333171,
                50.8091306953581
            ]
        }
    },
    {
        "description": "01",
        "locationID": "8f4a6e19-e6c5-4b17-9d72-f608dbf7b7b7",
        "name": "JURANDA",
        "officialNumber": "0000000000653",
        "stopRadius": 30,
        "gpsLocation": {
            "type": "Point",
            "coordinates": [
                19.0833525359631,
                50.7706277008742
            ]
        }
    },
    {
        "description": "02",
        "locationID": "e5ecc237-695d-4b19-a426-270254ce5d95",
        "name": "KAWODRZAŃSKA",
        "officialNumber": "0000000000297",
        "stopRadius": 30,
        "gpsLocation": {
            "type": "Point",
            "coordinates": [
                19.0779572725296,
                50.7861471191511
            ]
        }
    },
    {
        "description": "02",
        "locationID": "db370b9f-a722-47f7-91a3-7f692cfa97ab",
        "name": "ZŁOTA GÓRA II",
        "officialNumber": "0000000001217",
        "stopRadius": 30,
        "gpsLocation": {
            "type": "Point",
            "coordinates": [
                19.1653141379356,
                50.8155750022447
            ]
        }
    },
    {
        "description": "02",
        "locationID": "6ee01281-605f-4f16-a2d6-5f9927fb0102",
        "name": "FIELDORFA-NILA",
        "officialNumber": "0000000000070",
        "stopRadius": 50,
        "gpsLocation": {
            "type": "Point",
            "coordinates": [
                19.1296388888889,
                50.8398888888889
            ]
        }
    },
    {
        "description": "02",
        "locationID": "4172ebe6-3968-41fd-8b57-aaf4a46a77c8",
        "name": "DYBOWSKIEGO",
        "officialNumber": "0000000001027",
        "stopRadius": 30,
        "gpsLocation": {
            "type": "Point",
            "coordinates": [
                19.1422230005264,
                50.8546360418745
            ]
        }
    },
    {
        "description": "02",
        "locationID": "32325fe9-9b77-4013-a2bc-ab8cafa55058",
        "name": "JEŻYNOWA",
        "officialNumber": "0000000000280",
        "stopRadius": 30,
        "gpsLocation": {
            "type": "Point",
            "coordinates": [
                19.0320995063827,
                50.7885951873139
            ]
        }
    },
    {
        "description": "02",
        "locationID": "9801b2a1-1d69-4733-9dd9-495f33fa74d8",
        "name": "SKWER SOKOŁÓW",
        "officialNumber": "0000000000027",
        "stopRadius": 30,
        "gpsLocation": {
            "type": "Point",
            "coordinates": [
                19.1053077578545,
                50.8053685868641
            ]
        }
    },
    {
        "description": "skasować",
        "locationID": "6a795483-8400-4a89-88c4-b87f3c7a5413",
        "name": "",
        "officialNumber": "0000000000049",
        "stopRadius": 0,
        "gpsLocation": {
            "type": "Point",
            "coordinates": [
                19.1189420958587,
                50.8072832347539
            ]
        }
    },
    {
        "description": "03",
        "locationID": "e3d7189d-5a56-4616-9eb6-9ac8a8c1dfb6",
        "name": "GRABÓWKA",
        "officialNumber": "0000000001253",
        "stopRadius": 30,
        "gpsLocation": {
            "type": "Point",
            "coordinates": [
                19.060228146167,
                50.8368251539667
            ]
        }
    },
    {
        "description": "02",
        "locationID": "35f20253-6311-4bf5-84d3-ea12eee1f7f2",
        "name": "STERNICZA",
        "officialNumber": "0000000000343",
        "stopRadius": 30,
        "gpsLocation": {
            "type": "Point",
            "coordinates": [
                19.1048936965925,
                50.7563089975364
            ]
        }
    },
    {
        "description": "01",
        "locationID": "bc8d5d29-9c34-420a-8689-4da059afdfa5",
        "name": "BUGAJSKA",
        "officialNumber": "0000000000147",
        "stopRadius": 30,
        "gpsLocation": {
            "type": "Point",
            "coordinates": [
                19.164219275897,
                50.7676468763238
            ]
        }
    },
    {
        "description": "02",
        "locationID": "1c4963d7-0af4-4e29-bdd6-1b30e842de15",
        "name": "WEYSSENHOFF",
        "officialNumber": "0000000000606",
        "stopRadius": 30,
        "gpsLocation": {
            "type": "Point",
            "coordinates": [
                19.1785199940205,
                50.7649337233109
            ]
        }
    },
    {
        "description": "06",
        "locationID": "7bdbaac5-830f-4b69-b1b5-4ac73dc418f0",
        "name": "ALEJA JANA PAWŁA II",
        "officialNumber": "0000000001014",
        "stopRadius": 50,
        "gpsLocation": {
            "type": "Point",
            "coordinates": [
                19.1181743144989,
                50.8169679998848
            ]
        }
    },
    {
        "description": "StradomSokola",
        "locationID": "0d47b8aa-ccf5-4a51-8ebf-6012effd3341",
        "name": "",
        "officialNumber": "0000000000293",
        "stopRadius": 0,
        "gpsLocation": {
            "type": "Point",
            "coordinates": [
                19.045062661171,
                50.7842677806331
            ]
        }
    },
    {
        "description": "01",
        "locationID": "36f752d4-2377-4549-8c7c-2cdee76425ca",
        "name": "JESIENNA - SZKOŁA",
        "officialNumber": "0000000000029",
        "stopRadius": 30,
        "gpsLocation": {
            "type": "Point",
            "coordinates": [
                19.1456599887071,
                50.7698278997051
            ]
        }
    },
    {
        "description": "01",
        "locationID": "7437f9e6-af62-4bc4-b0a0-5e3d72f6860a",
        "name": "CYRKLOWA",
        "officialNumber": "0000000001355",
        "stopRadius": 30,
        "gpsLocation": {
            "type": "Point",
            "coordinates": [
                19.0461878378821,
                50.8125582621492
            ]
        }
    },
    {
        "description": "02",
        "locationID": "121d1061-67cc-4ae2-8680-8e614d5636de",
        "name": "DROGOWCÓW - RONDO",
        "officialNumber": "0000000001271",
        "stopRadius": 30,
        "gpsLocation": {
            "type": "Point",
            "coordinates": [
                19.1420187178512,
                50.8204349596369
            ]
        }
    },
    {
        "description": "04",
        "locationID": "f5504936-7b1e-416f-9505-c123fe82dd99",
        "name": "SREBRNA",
        "officialNumber": "",
        "stopRadius": 50,
        "gpsLocation": {
            "type": "Point",
            "coordinates": [
                19.1443365812302,
                50.8140853639067
            ]
        }
    },
    {
        "description": "01",
        "locationID": "302e5b8f-a5cf-474e-8e67-ad789bc65356",
        "name": "HUBERMANA",
        "officialNumber": "0000000000248",
        "stopRadius": 30,
        "gpsLocation": {
            "type": "Point",
            "coordinates": [
                19.1546886311535,
                50.8365719837337
            ]
        }
    },
    {
        "description": "04",
        "locationID": "5f4a5c9c-a992-4e22-b2de-e7695367423b",
        "name": "",
        "officialNumber": "0000000000456",
        "stopRadius": 0,
        "gpsLocation": {
            "type": "Point",
            "coordinates": [
                19.0930889546871,
                50.8250552926406
            ]
        }
    },
    {
        "description": "05",
        "locationID": "845e230b-5e61-4cbb-bf22-1c1e59b334f2",
        "name": "- granica- gm. POCZESNA",
        "officialNumber": "",
        "stopRadius": 50,
        "gpsLocation": null
    },
    {
        "description": "02",
        "locationID": "e389615b-6eb1-49bb-8562-fbe5e514d4e0",
        "name": "CYRKLOWA",
        "officialNumber": "0000000001356",
        "stopRadius": 30,
        "gpsLocation": {
            "type": "Point",
            "coordinates": [
                19.0461704134941,
                50.8122287572413
            ]
        }
    },
    {
        "description": "04",
        "locationID": "7e30d6e5-9802-4a65-96f7-522415f8558f",
        "name": "FIELDORFA-NILA",
        "officialNumber": "0000000000216",
        "stopRadius": 30,
        "gpsLocation": {
            "type": "Point",
            "coordinates": [
                19.1323199006969,
                50.8401352251149
            ]
        }
    },
    {
        "description": "04",
        "locationID": "b6364f8f-7cb5-4276-80f3-f0e0958dcdf1",
        "name": "KASZTANOWA",
        "officialNumber": "0000000001180",
        "stopRadius": 30,
        "gpsLocation": {
            "type": "Point",
            "coordinates": [
                19.1357843577862,
                50.7826851434969
            ]
        }
    },
    {
        "description": "Modrzewiowa",
        "locationID": "0b125878-916c-40b2-a1a2-727308e083cf",
        "name": "",
        "officialNumber": "0000000000776",
        "stopRadius": 0,
        "gpsLocation": {
            "type": "Point",
            "coordinates": [
                19.1553322970867,
                50.7141135934797
            ]
        }
    },
    {
        "description": "02",
        "locationID": "fe281f3e-0971-46f3-ae37-8b41d935e88e",
        "name": "WSPÓLNA",
        "officialNumber": "0000000000013",
        "stopRadius": 30,
        "gpsLocation": {
            "type": "Point",
            "coordinates": [
                19.1497305035591,
                50.8075636120019
            ]
        }
    },
    {
        "description": "02",
        "locationID": "58b16ce0-6de4-4908-a939-decc5c4838f2",
        "name": "POLONTEX",
        "officialNumber": "0000000000488",
        "stopRadius": 30,
        "gpsLocation": {
            "type": "Point",
            "coordinates": [
                19.1418086851483,
                50.7936770969797
            ]
        }
    },
    {
        "description": "03",
        "locationID": "49a2e728-1836-42b0-bf69-4126bc73a768",
        "name": "LEŚNA",
        "officialNumber": "0000000000965",
        "stopRadius": 30,
        "gpsLocation": {
            "type": "Point",
            "coordinates": [
                19.0242219595153,
                50.7624024515682
            ]
        }
    },
    {
        "description": "01",
        "locationID": "cbbe0c11-0ae8-42af-91e7-8a501166f570",
        "name": "ZAWODZIE - DŁUGA I",
        "officialNumber": "0000000000820",
        "stopRadius": 30,
        "gpsLocation": {
            "type": "Point",
            "coordinates": [
                19.1682980954647,
                50.7137934536839
            ]
        }
    },
    {
        "description": "02",
        "locationID": "8b64a3fd-31f4-493e-b94f-93111e642421",
        "name": "MARYNARSKA",
        "officialNumber": "0000000000405",
        "stopRadius": 30,
        "gpsLocation": {
            "type": "Point",
            "coordinates": [
                19.0231881676395,
                50.7883471726245
            ]
        }
    },
    {
        "description": "01",
        "locationID": "7cdb610f-9323-4f44-9a4e-d24734c18463",
        "name": "MŁYNEK",
        "officialNumber": "0000000000720",
        "stopRadius": 30,
        "gpsLocation": {
            "type": "Point",
            "coordinates": [
                19.084779471159,
                50.7248824335296
            ]
        }
    },
    {
        "description": "04",
        "locationID": "fe902a5f-17f5-4418-871e-45b865449830",
        "name": "STADION RAKÓW",
        "officialNumber": "0000000001185",
        "stopRadius": 30,
        "gpsLocation": {
            "type": "Point",
            "coordinates": [
                19.1582733392715,
                50.7758587976533
            ]
        }
    },
    {
        "description": "01",
        "locationID": "916d2b27-2349-4398-9e9a-27360c1e0eec",
        "name": "RYNEK WIELUŃSKI",
        "officialNumber": "0000000000529",
        "stopRadius": 30,
        "gpsLocation": {
            "type": "Point",
            "coordinates": [
                19.0958514411502,
                50.8163692693505
            ]
        }
    },
    {
        "description": "04",
        "locationID": "39fed924-64f1-487b-a059-18582d08d2fe",
        "name": "",
        "officialNumber": "0000000000834",
        "stopRadius": 0,
        "gpsLocation": {
            "type": "Point",
            "coordinates": [
                19.1333422064781,
                50.7141951141395
            ]
        }
    },
    {
        "description": "01",
        "locationID": "22b23cf1-5938-4b75-a7c7-bbe9f63f30bd",
        "name": "ZAJEZDNIA MPK",
        "officialNumber": "0000000000093",
        "stopRadius": 30,
        "gpsLocation": {
            "type": "Point",
            "coordinates": [
                19.1359278559685,
                50.7871001137418
            ]
        }
    },
    {
        "description": "02",
        "locationID": "726f1586-3be3-4d87-8f6e-83f5a47b921f",
        "name": "POCZESNA - SZKOŁA",
        "officialNumber": "0000000000787",
        "stopRadius": 30,
        "gpsLocation": {
            "type": "Point",
            "coordinates": [
                19.1542258858681,
                50.7131370328879
            ]
        }
    },
    {
        "description": "02",
        "locationID": "a0e1f893-d84a-41e3-83f3-6ddefda8d6e6",
        "name": "HUTA STARA \"A\"",
        "officialNumber": "0000000000685",
        "stopRadius": 30,
        "gpsLocation": {
            "type": "Point",
            "coordinates": [
                19.1272428631783,
                50.7263757640857
            ]
        }
    },
    {
        "description": "01",
        "locationID": "5ec40c4a-d09f-4a65-8e1a-c6e6ea509204",
        "name": "",
        "officialNumber": "0000000001008",
        "stopRadius": 0,
        "gpsLocation": {
            "type": "Point",
            "coordinates": [
                19.2673400044441,
                50.7453731572798
            ]
        }
    },
    {
        "description": "01",
        "locationID": "a927c463-4a38-4e78-8afa-22af994409e2",
        "name": "KANAŁ KOHNA",
        "officialNumber": "0000000001022",
        "stopRadius": 30,
        "gpsLocation": {
            "type": "Point",
            "coordinates": [
                19.1313032303809,
                50.8031877296849
            ]
        }
    },
    {
        "description": "01",
        "locationID": "bad5828c-1bf0-4828-b97a-8bbb42fc99e7",
        "name": "STREFOWA III",
        "officialNumber": "0000000001361",
        "stopRadius": 30,
        "gpsLocation": {
            "type": "Point",
            "coordinates": [
                19.166186780108,
                50.8113495797583
            ]
        }
    },
    {
        "description": "02",
        "locationID": "d4188b43-3280-4acf-9c35-e90def8830df",
        "name": "OSTATNI GROSZ",
        "officialNumber": "0000000000061",
        "stopRadius": 30,
        "gpsLocation": {
            "type": "Point",
            "coordinates": [
                19.126742631197,
                50.7936026810486
            ]
        }
    },
    {
        "description": "02",
        "locationID": "9b61db69-1dbe-4c07-9050-86e0eebd0e25",
        "name": "KONIECPOLSKA",
        "officialNumber": "0000000000317",
        "stopRadius": 30,
        "gpsLocation": {
            "type": "Point",
            "coordinates": [
                19.0504391491413,
                50.8189684548358
            ]
        }
    },
    {
        "description": "02",
        "locationID": "9a936a45-99bc-432d-b09d-a50d7b8d58ca",
        "name": "",
        "officialNumber": "0000000000475",
        "stopRadius": 0,
        "gpsLocation": {
            "type": "Point",
            "coordinates": [
                19.0899977087975,
                50.8311904659953
            ]
        }
    },
    {
        "description": "01",
        "locationID": "9b87faba-1f81-4b13-9e44-ac09c640afa4",
        "name": "BACEWICZ",
        "officialNumber": "0000000000120",
        "stopRadius": 30,
        "gpsLocation": {
            "type": "Point",
            "coordinates": [
                19.1289735685463,
                50.8422573935143
            ]
        }
    },
    {
        "description": "03",
        "locationID": "12ef2457-3845-4e03-b291-64eb21d2f086",
        "name": "",
        "officialNumber": "0000000000392",
        "stopRadius": 0,
        "gpsLocation": {
            "type": "Point",
            "coordinates": [
                19.0771821141243,
                50.7439949978792
            ]
        }
    },
    {
        "description": "04",
        "locationID": "6ed04f8e-1030-41ee-b33e-746b277cd695",
        "name": "DOMY STUDENCKIE",
        "officialNumber": "0000000000917",
        "stopRadius": 30,
        "gpsLocation": {
            "type": "Point",
            "coordinates": [
                19.1127106547356,
                50.8250811310985
            ]
        }
    },
    {
        "description": "01",
        "locationID": "4d553ea0-3714-43fb-ad5c-e9010702e42f",
        "name": "POLSKIEGO CZERWONEGO KRZYŻA ",
        "officialNumber": "0000000000078",
        "stopRadius": 30,
        "gpsLocation": {
            "type": "Point",
            "coordinates": [
                19.1158609092236,
                50.8301409574369
            ]
        }
    },
    {
        "description": "02",
        "locationID": "7e750afb-a1df-49fb-bc2d-ed0d686b232a",
        "name": "RONDO TRZECH KRZYŻY",
        "officialNumber": "0000000000522",
        "stopRadius": 30,
        "gpsLocation": {
            "type": "Point",
            "coordinates": [
                19.1283406758761,
                50.8178150087751
            ]
        }
    },
    {
        "description": "01",
        "locationID": "80e37561-9874-443b-addf-d89e5bd5b829",
        "name": "BUSOLOWA II",
        "officialNumber": "0000000000156",
        "stopRadius": 30,
        "gpsLocation": {
            "type": "Point",
            "coordinates": [
                19.0407054126263,
                50.7773369344487
            ]
        }
    },
    {
        "description": "01",
        "locationID": "c50ccd8a-c574-48b3-abb8-96d2fc1c0640",
        "name": "NOWA WIEŚ - SKRZYŻOWANIE",
        "officialNumber": "0000000000737",
        "stopRadius": 30,
        "gpsLocation": {
            "type": "Point",
            "coordinates": [
                19.1642070561647,
                50.7322700922314
            ]
        }
    },
    {
        "description": "01",
        "locationID": "3b1b8c9e-a090-4d0a-baa0-3a9e24296873",
        "name": "",
        "officialNumber": "0000000001306",
        "stopRadius": 0,
        "gpsLocation": {
            "type": "Point",
            "coordinates": [
                19.224776700139,
                50.8117864146898
            ]
        }
    },
    {
        "description": "01",
        "locationID": "3a49c10a-7a66-4c65-8424-5a218cac6f0d",
        "name": "OLSZTYN - ŻWIRKI I WIGURY",
        "officialNumber": "0000000000998",
        "stopRadius": 30,
        "gpsLocation": {
            "type": "Point",
            "coordinates": [
                19.25895139575,
                50.7532679388382
            ]
        }
    },
    {
        "description": "02",
        "locationID": "1bdd7193-4248-463a-8500-128b6a56f8f9",
        "name": "D.H. SEZAM",
        "officialNumber": "0000000000505",
        "stopRadius": 30,
        "gpsLocation": {
            "type": "Point",
            "coordinates": [
                19.1414837546096,
                50.7830871029477
            ]
        }
    },
    {
        "description": "02",
        "locationID": "0815ca35-49cb-4f8e-89e8-50b58dbebd98",
        "name": "LUDOWA",
        "officialNumber": "0000000000376",
        "stopRadius": 30,
        "gpsLocation": {
            "type": "Point",
            "coordinates": [
                19.1080141067505,
                50.8469361901991
            ]
        }
    },
    {
        "description": "01",
        "locationID": "c632e1e9-9056-4c9b-a6be-09bca91e5d56",
        "name": "BERGER",
        "officialNumber": "0000000000045",
        "stopRadius": 30,
        "gpsLocation": {
            "type": "Point",
            "coordinates": [
                19.1915018856525,
                50.8011748698851
            ]
        }
    },
    {
        "description": "Przysieczna",
        "locationID": "6e253df4-39d2-455d-8abd-871e08d4d63d",
        "name": "",
        "officialNumber": "0000000000800",
        "stopRadius": 0,
        "gpsLocation": {
            "type": "Point",
            "coordinates": [
                19.0086771547794,
                50.8129278533063
            ]
        }
    },
    {
        "description": "01",
        "locationID": "cd99faff-9adc-41e9-b799-984d9be28bf4",
        "name": "KORDECKIEGO",
        "officialNumber": "0000000000335",
        "stopRadius": 50,
        "gpsLocation": {
            "type": "Point",
            "coordinates": [
                19.0820833333333,
                50.808
            ]
        }
    },
    {
        "description": "01",
        "locationID": "f8640ea4-f081-4bfa-99b4-7789cc2a9707",
        "name": "LWOWSKA",
        "officialNumber": "0000000000367",
        "stopRadius": 30,
        "gpsLocation": {
            "type": "Point",
            "coordinates": [
                19.0587300193923,
                50.8063290645685
            ]
        }
    },
    {
        "description": "01",
        "locationID": "afc3475d-4b9d-483b-b6dc-714d8bc4c361",
        "name": "WSPÓLNA",
        "officialNumber": "0000000000040",
        "stopRadius": 30,
        "gpsLocation": {
            "type": "Point",
            "coordinates": [
                19.1485530138016,
                50.8080263338688
            ]
        }
    },
    {
        "description": "02",
        "locationID": "3349df37-595f-427e-afd2-5193e30429ef",
        "name": "SPÓŁDZIELCZOŚCI",
        "officialNumber": "0000000000207",
        "stopRadius": 30,
        "gpsLocation": {
            "type": "Point",
            "coordinates": [
                19.0435644826697,
                50.7947471977572
            ]
        }
    },
    {
        "description": "02",
        "locationID": "bdfe788a-8b00-45d0-b218-c85e8cdfe588",
        "name": "JAGIELLOŃSKA",
        "officialNumber": "0000000000273",
        "stopRadius": 30,
        "gpsLocation": {
            "type": "Point",
            "coordinates": [
                19.1107211852557,
                50.7879942488291
            ]
        }
    },
    {
        "description": "01",
        "locationID": "abfb4d16-3df0-4bf8-9836-18c90a3c94d5",
        "name": "RZĄSAWSKA",
        "officialNumber": "0000000000535",
        "stopRadius": 30,
        "gpsLocation": {
            "type": "Point",
            "coordinates": [
                19.1623497121414,
                50.8465694553166
            ]
        }
    },
    {
        "description": "02",
        "locationID": "bcdd7ec4-dc31-4e6b-905f-30952687d91d",
        "name": "WICHROWA I",
        "officialNumber": "0000000001366",
        "stopRadius": 30,
        "gpsLocation": {
            "type": "Point",
            "coordinates": [
                19.0488292358146,
                50.8063907790062
            ]
        }
    },
    {
        "description": "02",
        "locationID": "0fc7850b-ac89-46ac-888d-033bca1c0aaf",
        "name": "MSTOWSKA",
        "officialNumber": "0000000000433",
        "stopRadius": 30,
        "gpsLocation": {
            "type": "Point",
            "coordinates": [
                19.2106086015701,
                50.8211899524116
            ]
        }
    },
    {
        "description": "01",
        "locationID": "99ed43d0-c87b-427c-a146-34f5e4f0b69d",
        "name": "SPÓŁDZIELCZOŚCI",
        "officialNumber": "0000000000208",
        "stopRadius": 30,
        "gpsLocation": {
            "type": "Point",
            "coordinates": [
                19.0412553909382,
                50.7945032783411
            ]
        }
    },
    {
        "description": "04",
        "locationID": "e7dc57fa-b33e-4ae0-ba9f-293549710455",
        "name": "STARY RYNEK",
        "officialNumber": "",
        "stopRadius": 50,
        "gpsLocation": {
            "type": "Point",
            "coordinates": [
                19.12825,
                50.8126111
            ]
        }
    },
    {
        "description": "Wyczerpy-AniołówBatalionów Chłopskich",
        "locationID": "72925ef2-7fc7-4390-9a0d-1347eb51c648",
        "name": "",
        "officialNumber": "0000000000124",
        "stopRadius": 0,
        "gpsLocation": {
            "type": "Point",
            "coordinates": [
                19.1953562200069,
                50.8362462423349
            ]
        }
    },
    {
        "description": "01",
        "locationID": "3108dd9f-d26e-4d0e-8b77-2ab5deb4529f",
        "name": "CYGANOWSKIEGO",
        "officialNumber": "0000000000126",
        "stopRadius": 30,
        "gpsLocation": {
            "type": "Point",
            "coordinates": [
                19.1883291732361,
                50.8379059660528
            ]
        }
    },
    {
        "description": "01",
        "locationID": "6729b498-744c-4817-890f-8f5153827e3a",
        "name": "ŁOJKI",
        "officialNumber": "0000000000825",
        "stopRadius": 30,
        "gpsLocation": {
            "type": "Point",
            "coordinates": [
                19.0092292700445,
                50.7918493169373
            ]
        }
    },
    {
        "description": "03",
        "locationID": "da90d6f7-c63f-44fc-b856-11003c74c4ef",
        "name": "RAKÓW - DWORZEC PKP",
        "officialNumber": "0000000000196",
        "stopRadius": 50,
        "gpsLocation": null
    },
    {
        "description": "05",
        "locationID": "c2176174-3e46-4b45-841f-ed53ca4043ab",
        "name": "FIELDORFA-NILA",
        "officialNumber": "0000000000214",
        "stopRadius": 30,
        "gpsLocation": {
            "type": "Point",
            "coordinates": [
                19.1327969388704,
                50.8398628603365
            ]
        }
    },
    {
        "description": "04",
        "locationID": "a701bdda-2904-4871-8700-bc6e68ef8664",
        "name": "",
        "officialNumber": "0000000000424",
        "stopRadius": 0,
        "gpsLocation": {
            "type": "Point",
            "coordinates": [
                19.2019631713629,
                50.818846023693
            ]
        }
    },
    {
        "description": "02",
        "locationID": "00137bbc-9ab4-4e94-868a-084189d2dac9",
        "name": "BOHATERÓW KATYNIA",
        "officialNumber": "0000000000030",
        "stopRadius": 30,
        "gpsLocation": {
            "type": "Point",
            "coordinates": [
                19.1497910984345,
                50.7703164070341
            ]
        }
    },
    {
        "description": "00",
        "locationID": "4d14e9d8-796c-4674-887c-74cc02cd6fec",
        "name": "REJTANA",
        "officialNumber": "",
        "stopRadius": 50,
        "gpsLocation": {
            "type": "Point",
            "coordinates": [
                19.1549098491669,
                50.78873050339
            ]
        }
    },
    {
        "description": "02",
        "locationID": "8d37e795-2289-4bff-9df7-32e0585548c0",
        "name": "MAZURY I",
        "officialNumber": "0000000000717",
        "stopRadius": 30,
        "gpsLocation": {
            "type": "Point",
            "coordinates": [
                19.0871572494507,
                50.7211934738406
            ]
        }
    },
    {
        "description": "02",
        "locationID": "ab7475ae-ea07-4577-81df-7f903e4b2cf1",
        "name": "HALA POLONIA",
        "officialNumber": "0000000000066",
        "stopRadius": 50,
        "gpsLocation": null
    },
    {
        "description": "01",
        "locationID": "d38e1efc-6f12-4a85-93a5-ac86306edea4",
        "name": "URZĄD CELNY",
        "officialNumber": "0000000000015",
        "stopRadius": 30,
        "gpsLocation": {
            "type": "Point",
            "coordinates": [
                19.1622805595398,
                50.8070652910197
            ]
        }
    },
    {
        "description": "01",
        "locationID": "65e6b264-8830-4792-b6a3-ca71dcba8272",
        "name": "BUKOWA",
        "officialNumber": "0000000000461",
        "stopRadius": 30,
        "gpsLocation": {
            "type": "Point",
            "coordinates": [
                19.1298155124239,
                50.7833599098014
            ]
        }
    },
    {
        "description": "02",
        "locationID": "ad29755c-d779-44a9-82f8-9f6ff3ff691b",
        "name": "KIEDRZYŃSKA",
        "officialNumber": "0000000000301",
        "stopRadius": 30,
        "gpsLocation": {
            "type": "Point",
            "coordinates": [
                19.1233589800561,
                50.8267320676103
            ]
        }
    },
    {
        "description": "01",
        "locationID": "1ce90ff4-e93f-49d2-aecd-b709d41d94da",
        "name": "",
        "officialNumber": "0000000000754",
        "stopRadius": 0,
        "gpsLocation": {
            "type": "Point",
            "coordinates": [
                19.2658540606499,
                50.7402455880156
            ]
        }
    },
    {
        "description": "02",
        "locationID": "02011ef8-ebd4-4193-a348-bf18fd0dae31",
        "name": "OKRZEI",
        "officialNumber": "0000000000454",
        "stopRadius": 30,
        "gpsLocation": {
            "type": "Point",
            "coordinates": [
                19.1451811501546,
                50.7809234724935
            ]
        }
    },
    {
        "description": "01",
        "locationID": "9c89da55-594f-42ee-8dfa-ff296488799e",
        "name": "II URZĄD SKARBOWY",
        "officialNumber": "0000000000038",
        "stopRadius": 30,
        "gpsLocation": {
            "type": "Point",
            "coordinates": [
                19.1391503727912,
                50.8055572239544
            ]
        }
    },
    {
        "description": "02",
        "locationID": "7606dfe0-ee6a-45d5-a260-a1766d22f4cb",
        "name": "DOJAZDOWA",
        "officialNumber": "0000000000981",
        "stopRadius": 30,
        "gpsLocation": {
            "type": "Point",
            "coordinates": [
                19.1168654981018,
                50.7871476192414
            ]
        }
    },
    {
        "description": "01",
        "locationID": "7587817e-98d4-4853-8673-a7e5b32dbe25",
        "name": "ŚW. JADWIGI",
        "officialNumber": "0000000001233",
        "stopRadius": 30,
        "gpsLocation": {
            "type": "Point",
            "coordinates": [
                19.0803121022631,
                50.8018542044155
            ]
        }
    },
    {
        "description": "01",
        "locationID": "3a08ebd7-1d4e-4270-af62-e23f70037893",
        "name": "ŻEROMSKIEGO",
        "officialNumber": "0000000000637",
        "stopRadius": 30,
        "gpsLocation": {
            "type": "Point",
            "coordinates": [
                19.1493777930737,
                50.7919682225119
            ]
        }
    },
    {
        "description": "03",
        "locationID": "44057fa8-6205-4577-86e5-27ca5b9a13f0",
        "name": "RONDO TRZECH KRZYŻY",
        "officialNumber": "0000000000520",
        "stopRadius": 30,
        "gpsLocation": {
            "type": "Point",
            "coordinates": [
                19.1300004781173,
                50.8181961349671
            ]
        }
    },
    {
        "description": "02",
        "locationID": "5a109c43-bea3-4e14-add2-6f1d7a0e72ee",
        "name": "OSIEDLE BRZOZOWY PARK",
        "officialNumber": "0000000001037",
        "stopRadius": 30,
        "gpsLocation": {
            "type": "Point",
            "coordinates": [
                19.1335162684309,
                50.8601132719506
            ]
        }
    },
    {
        "description": "02",
        "locationID": "4b6bcea6-5f18-4276-a3a8-6fa9f394160f",
        "name": "WIELKOBORSKA",
        "officialNumber": "0000000000608",
        "stopRadius": 30,
        "gpsLocation": {
            "type": "Point",
            "coordinates": [
                19.0350660681725,
                50.816672287923
            ]
        }
    },
    {
        "description": "02",
        "locationID": "201b4786-414b-420a-aba9-09c4293ca9b1",
        "name": "MANGANOWA",
        "officialNumber": "0000000000397",
        "stopRadius": 30,
        "gpsLocation": {
            "type": "Point",
            "coordinates": [
                19.1549160216448,
                50.8205155477543
            ]
        }
    },
    {
        "description": "03",
        "locationID": "507c8788-7662-46e6-843e-0971fa623160",
        "name": "RZECZNA",
        "officialNumber": "0000000001057",
        "stopRadius": 30,
        "gpsLocation": {
            "type": "Point",
            "coordinates": [
                19.0752696990967,
                50.7663859103397
            ]
        }
    },
    {
        "description": "01",
        "locationID": "b6860622-ad14-4eb1-a2d1-7a0b1cefe720",
        "name": "WRZOSOWA - SABINOWSKA I",
        "officialNumber": "0000000000809",
        "stopRadius": 30,
        "gpsLocation": {
            "type": "Point",
            "coordinates": [
                19.1367325186729,
                50.7438991022735
            ]
        }
    },
    {
        "description": "01",
        "locationID": "63ed12b8-d7f4-4267-bb59-3c15c7e50cc2",
        "name": "ODRZYKOŃ",
        "officialNumber": "0000000000748",
        "stopRadius": 30,
        "gpsLocation": {
            "type": "Point",
            "coordinates": [
                19.2229869961739,
                50.7602129558334
            ]
        }
    },
    {
        "description": "02",
        "locationID": "11633de1-0dab-4deb-908b-95ea03efa8e6",
        "name": "MIRECKIEGO",
        "officialNumber": "0000000000418",
        "stopRadius": 30,
        "gpsLocation": {
            "type": "Point",
            "coordinates": [
                19.1517828366146,
                50.775470583646
            ]
        }
    },
    {
        "description": "03",
        "locationID": "c9c3dd8e-b57e-443b-b7a1-10041eea7421",
        "name": "RAKOWSKA",
        "officialNumber": "0000000001183",
        "stopRadius": 30,
        "gpsLocation": {
            "type": "Point",
            "coordinates": [
                19.1539750993252,
                50.7718481728255
            ]
        }
    },
    {
        "description": "01",
        "locationID": "a145d7d3-6abf-4fd6-b667-331139828949",
        "name": "POCZESNA - OSP",
        "officialNumber": "0000000000777",
        "stopRadius": 30,
        "gpsLocation": {
            "type": "Point",
            "coordinates": [
                19.1552478075027,
                50.7141152918283
            ]
        }
    },
    {
        "description": "02",
        "locationID": "63d96d07-5611-4b36-8eb2-87b965da62ea",
        "name": "GNASZYN - DWORZEC PKP",
        "officialNumber": "0000000000229",
        "stopRadius": 30,
        "gpsLocation": {
            "type": "Point",
            "coordinates": [
                19.0274306574706,
                50.7916840797433
            ]
        }
    },
    {
        "description": "03",
        "locationID": "00187e50-51d0-4a88-bb7e-fa7a16ffec33",
        "name": "DĄBROWSKIEGO - SĄDY",
        "officialNumber": "0000000000932",
        "stopRadius": 30,
        "gpsLocation": {
            "type": "Point",
            "coordinates": [
                19.1133087162475,
                50.8168463884578
            ]
        }
    },
    {
        "description": "01",
        "locationID": "cb822f6c-9bcc-4fad-99ac-3e88788b36c1",
        "name": "ZAWODZIE - SZPITAL",
        "officialNumber": "0000000000020",
        "stopRadius": 50,
        "gpsLocation": null
    },
    {
        "description": "- granica- gm. POCZESNA - 03",
        "locationID": "401ad5b5-1deb-43ee-b4eb-587013c6ab7e",
        "name": "",
        "officialNumber": "0000000000211",
        "stopRadius": 0,
        "gpsLocation": {
            "type": "Point",
            "coordinates": [
                19.1565345972776,
                50.7564504218511
            ]
        }
    },
    {
        "description": "06",
        "locationID": "48cb3ffa-44e3-43ed-8665-859f0b53ea34",
        "name": "ESTAKADA",
        "officialNumber": "0000000001079",
        "stopRadius": 30,
        "gpsLocation": {
            "type": "Point",
            "coordinates": [
                19.1404507846686,
                50.7847954625921
            ]
        }
    },
    {
        "description": "02",
        "locationID": "cb87a8da-df85-4750-87b7-b33e392b0857",
        "name": "BRZEZINY",
        "officialNumber": "0000000000683",
        "stopRadius": 30,
        "gpsLocation": {
            "type": "Point",
            "coordinates": [
                19.0936914948356,
                50.750810800907
            ]
        }
    },
    {
        "description": "01",
        "locationID": "fcedfe02-4200-4a9c-9b99-240a29591406",
        "name": "AKADEMICKA",
        "officialNumber": "",
        "stopRadius": 50,
        "gpsLocation": {
            "type": "Point",
            "coordinates": [
                19.115861111111112,
                50.82361111111111
            ]
        }
    },
    {
        "description": "01",
        "locationID": "0d10b4d6-bbca-48b1-983d-f782af74d1ec",
        "name": "STRADOM",
        "officialNumber": "0000000000566",
        "stopRadius": 30,
        "gpsLocation": {
            "type": "Point",
            "coordinates": [
                19.1118569418131,
                50.7980192019948
            ]
        }
    },
    {
        "description": "01",
        "locationID": "528469f7-088e-4501-8361-3b032e30e9e6",
        "name": "WRZOSOWA - DŁUGA",
        "officialNumber": "0000000000804",
        "stopRadius": 30,
        "gpsLocation": {
            "type": "Point",
            "coordinates": [
                19.1411474347115,
                50.7466053196371
            ]
        }
    },
    {
        "description": "01",
        "locationID": "2478d2b6-3bcf-4dd5-a8c3-4b919b5321b5",
        "name": "OLSZTYN - RYNEK",
        "officialNumber": "0000000000758",
        "stopRadius": 30,
        "gpsLocation": {
            "type": "Point",
            "coordinates": [
                19.2686086893082,
                50.7502405187752
            ]
        }
    },
    {
        "description": "02",
        "locationID": "f56ec94c-4a9c-4186-8a17-76aa140c4ec8",
        "name": "DRZEWNA",
        "officialNumber": "0000000000195",
        "stopRadius": 30,
        "gpsLocation": {
            "type": "Point",
            "coordinates": [
                19.0177497267723,
                50.7923709082146
            ]
        }
    },
    {
        "description": "05",
        "locationID": "14c61ebb-a1b4-488b-825d-481301080e21",
        "name": "SPORTOWA",
        "officialNumber": "0000000001099",
        "stopRadius": 30,
        "gpsLocation": {
            "type": "Point",
            "coordinates": [
                19.1357266902924,
                50.7732806388923
            ]
        }
    },
    {
        "description": "03",
        "locationID": "141773ec-3e89-4646-93c6-ed257d142f92",
        "name": "",
        "officialNumber": "0000000001212",
        "stopRadius": 0,
        "gpsLocation": {
            "type": "Point",
            "coordinates": [
                19.1285759210587,
                50.8119397944781
            ]
        }
    },
    {
        "description": "01",
        "locationID": "f32f9de5-aa26-4a9c-9124-6c9c10e6304f",
        "name": "",
        "officialNumber": "0000000000681",
        "stopRadius": 0,
        "gpsLocation": {
            "type": "Point",
            "coordinates": [
                19.2811694741249,
                50.7067336881207
            ]
        }
    },
    {
        "description": "01",
        "locationID": "eb6bf9b3-12b8-462f-bcbf-6a7f7ddb2825",
        "name": "C.H.JAGIELLOŃCZYCY",
        "officialNumber": "0000000000158",
        "stopRadius": 30,
        "gpsLocation": {
            "type": "Point",
            "coordinates": [
                19.1430725165389,
                50.7835801032656
            ]
        }
    },
    {
        "description": "01",
        "locationID": "4771e9ac-3a66-4199-b47a-c980546d1e54",
        "name": "KIEDRZYŃSKA",
        "officialNumber": "0000000000300",
        "stopRadius": 30,
        "gpsLocation": {
            "type": "Point",
            "coordinates": [
                19.122054220356,
                50.8265540340512
            ]
        }
    },
    {
        "description": "02",
        "locationID": "c7ecc016-8d86-4f4f-9784-5dae62b3eeee",
        "name": "MICHAŁÓW",
        "officialNumber": "0000000000718",
        "stopRadius": 30,
        "gpsLocation": {
            "type": "Point",
            "coordinates": [
                19.103969335556,
                50.7092611605099
            ]
        }
    },
    {
        "description": "01",
        "locationID": "9a7773da-0708-49a1-9294-169813094ea6",
        "name": "MELIORANTÓW",
        "officialNumber": "0000000000410",
        "stopRadius": 30,
        "gpsLocation": {
            "type": "Point",
            "coordinates": [
                19.1685609519482,
                50.8653886445941
            ]
        }
    },
    {
        "description": "01",
        "locationID": "f4986e67-cff0-4f8d-9f09-377d94e62f93",
        "name": "FARADAYA",
        "officialNumber": "0000000000212",
        "stopRadius": 30,
        "gpsLocation": {
            "type": "Point",
            "coordinates": [
                19.1435032956524,
                50.8076081206789
            ]
        }
    },
    {
        "description": "01",
        "locationID": "decd3ea9-bcf7-45e1-b66d-27321d0d4547",
        "name": "KUCELIN - RONDO",
        "officialNumber": "0000000001016",
        "stopRadius": 30,
        "gpsLocation": {
            "type": "Point",
            "coordinates": [
                19.1773252991995,
                50.7900462411602
            ]
        }
    },
    {
        "description": "03",
        "locationID": "32cc48f5-0eed-4c7a-9bf0-b8027095641d",
        "name": "ŚW. KAZIMIERZA",
        "officialNumber": "0000000000579",
        "stopRadius": 30,
        "gpsLocation": {
            "type": "Point",
            "coordinates": [
                19.1021507978439,
                50.8080144692628
            ]
        }
    },
    {
        "description": "02",
        "locationID": "b36f5115-94a6-48ad-bfac-ce139c1f7ef0",
        "name": "WRZOSOWA - KŁADKA",
        "officialNumber": "0000000000808",
        "stopRadius": 30,
        "gpsLocation": {
            "type": "Point",
            "coordinates": [
                19.1541427533209,
                50.7463718038688
            ]
        }
    },
    {
        "description": "01",
        "locationID": "70d5dfee-7faa-4e71-84d9-7569df009a9f",
        "name": "PUSTA",
        "officialNumber": "0000000000009",
        "stopRadius": 30,
        "gpsLocation": {
            "type": "Point",
            "coordinates": [
                19.1392819056141,
                50.7903100536914
            ]
        }
    },
    {
        "description": "03",
        "locationID": "782578a5-8c32-4c29-8a8f-40d9ff34173f",
        "name": "ŚW. KRZYSZTOFA",
        "officialNumber": "0000000001018",
        "stopRadius": 30,
        "gpsLocation": {
            "type": "Point",
            "coordinates": [
                19.087630452743,
                50.8233914119975
            ]
        }
    },
    {
        "description": "02",
        "locationID": "5d1ebb40-6748-4c0c-8746-574a896b1403",
        "name": "",
        "officialNumber": "0000000000682",
        "stopRadius": 0,
        "gpsLocation": {
            "type": "Point",
            "coordinates": [
                19.2817005515099,
                50.7064432238953
            ]
        }
    },
    {
        "description": "01",
        "locationID": "87fc159d-9021-4698-82ee-1d26275f96da",
        "name": "HOENE-WROŃSKIEGO",
        "officialNumber": "0000000000246",
        "stopRadius": 30,
        "gpsLocation": {
            "type": "Point",
            "coordinates": [
                19.1116726398468,
                50.8000441630934
            ]
        }
    },
    {
        "description": "02",
        "locationID": "ced57f35-b2cb-4ac4-8ea3-b1de51b81fbe",
        "name": "WYCZERPY GÓRNE",
        "officialNumber": "0000000000626",
        "stopRadius": 30,
        "gpsLocation": {
            "type": "Point",
            "coordinates": [
                19.1762911110284,
                50.8403570609608
            ]
        }
    },
    {
        "description": "03",
        "locationID": "827d5fce-b035-40f4-9f21-170096f05c5c",
        "name": "",
        "officialNumber": "0000000001346",
        "stopRadius": 0,
        "gpsLocation": {
            "type": "Point",
            "coordinates": [
                19.0515723824501,
                50.7967273218433
            ]
        }
    },
    {
        "description": "02",
        "locationID": "79b44cb2-cb58-427b-9049-0689d8a320a8",
        "name": "BURSZTYNOWA I",
        "officialNumber": "0000000001327",
        "stopRadius": 30,
        "gpsLocation": {
            "type": "Point",
            "coordinates": [
                19.213779643178,
                50.8054999522737
            ]
        }
    },
    {
        "description": "01",
        "locationID": "fbf0e28e-3950-409e-9143-b6d0831087e4",
        "name": "WITAMINOWA",
        "officialNumber": "0000000001059",
        "stopRadius": 30,
        "gpsLocation": {
            "type": "Point",
            "coordinates": [
                19.1173435002565,
                50.7700891225137
            ]
        }
    },
    {
        "description": "01",
        "locationID": "0261904f-73fe-4cd6-96c0-ad6346dfed40",
        "name": "CHŁODNA",
        "officialNumber": "0000000000161",
        "stopRadius": 30,
        "gpsLocation": {
            "type": "Point",
            "coordinates": [
                19.1594964265823,
                50.8013028567112
            ]
        }
    },
    {
        "description": "02",
        "locationID": "c0a09c95-1848-429f-93d4-5c3e32ae7ec5",
        "name": "RZĄSAWA",
        "officialNumber": "0000000000532",
        "stopRadius": 30,
        "gpsLocation": {
            "type": "Point",
            "coordinates": [
                19.1690947115421,
                50.8711017018513
            ]
        }
    },
    {
        "description": "01",
        "locationID": "6bc6b28e-6f26-4470-bbf4-ae137528220f",
        "name": "TEATR IM.ADAMA MICKIEWICZA",
        "officialNumber": "0000000000585",
        "stopRadius": 30,
        "gpsLocation": {
            "type": "Point",
            "coordinates": [
                19.1143041152499,
                50.8160523514772
            ]
        }
    },
    {
        "description": "02",
        "locationID": "66eca471-2b2a-43bb-a190-9cef576f0dea",
        "name": "CMENTARZ MIRÓW",
        "officialNumber": "0000000000995",
        "stopRadius": 30,
        "gpsLocation": {
            "type": "Point",
            "coordinates": [
                19.2184513807297,
                50.8209298511787
            ]
        }
    },
    {
        "description": "05",
        "locationID": "f8fbfe32-55ce-4531-9502-c7337aaaf948",
        "name": "BUKOWA",
        "officialNumber": "0000000001097",
        "stopRadius": 30,
        "gpsLocation": {
            "type": "Point",
            "coordinates": [
                19.1278066172925,
                50.7844417894805
            ]
        }
    },
    {
        "description": "01",
        "locationID": "def40fb4-a781-4071-a7f4-a6a3c5039516",
        "name": "ARTYLERYJSKA",
        "officialNumber": "0000000000118",
        "stopRadius": 30,
        "gpsLocation": {
            "type": "Point",
            "coordinates": [
                19.0863250941038,
                50.7864226756332
            ]
        }
    },
    {
        "description": "02",
        "locationID": "5b35d9b6-1a0e-49de-8730-20f165bfc7fd",
        "name": "BERGER",
        "officialNumber": "0000000000019",
        "stopRadius": 30,
        "gpsLocation": {
            "type": "Point",
            "coordinates": [
                19.1921281814575,
                50.8008002309355
            ]
        }
    },
    {
        "description": "02",
        "locationID": "7cfff3d0-6ba1-499a-979a-942ef262d7e4",
        "name": "OLSZTYN - ŻWIRKI I WIGURY",
        "officialNumber": "0000000000999",
        "stopRadius": 30,
        "gpsLocation": {
            "type": "Point",
            "coordinates": [
                19.2597171664238,
                50.7529896415788
            ]
        }
    },
    {
        "description": "02",
        "locationID": "6b58d08e-150e-4dbf-90fb-6deeaf3e43de",
        "name": "KAWODRZA GÓRNA",
        "officialNumber": "0000000000295",
        "stopRadius": 30,
        "gpsLocation": {
            "type": "Point",
            "coordinates": [
                19.0451860427856,
                50.7840859051546
            ]
        }
    },
    {
        "description": "01",
        "locationID": "513cee5c-7fac-44f2-9ede-14ae1458a9a6",
        "name": "POCZESNA - KOŚCIÓŁ",
        "officialNumber": "0000000000769",
        "stopRadius": 30,
        "gpsLocation": {
            "type": "Point",
            "coordinates": [
                19.1607567250406,
                50.7170002808817
            ]
        }
    },
    {
        "description": "01",
        "locationID": "0f0f7650-e40e-4fb9-bf48-0f9be29b1170",
        "name": "NARCYZOWA",
        "officialNumber": "0000000000434",
        "stopRadius": 30,
        "gpsLocation": {
            "type": "Point",
            "coordinates": [
                19.1089495271444,
                50.8509276729032
            ]
        }
    },
    {
        "description": "02",
        "locationID": "f0cfcdac-1351-4c5b-ac2c-a97ce7a69e26",
        "name": "ZDROWA",
        "officialNumber": "0000000000652",
        "stopRadius": 30,
        "gpsLocation": {
            "type": "Point",
            "coordinates": [
                19.0886853069236,
                50.7613589654665
            ]
        }
    },
    {
        "description": "03",
        "locationID": "3529c1af-410b-41b3-ac4e-f5d6eae6322a",
        "name": "LICEUM im. H. SIENKIEWICZA",
        "officialNumber": "",
        "stopRadius": 50,
        "gpsLocation": {
            "type": "Point",
            "coordinates": [
                19.1087651252747,
                50.8123075649573
            ]
        }
    },
    {
        "description": "01",
        "locationID": "9e27f3f2-7604-47d7-8b48-d6725c27f382",
        "name": "JESIENNA",
        "officialNumber": "0000000000001",
        "stopRadius": 30,
        "gpsLocation": {
            "type": "Point",
            "coordinates": [
                19.1412949562073,
                50.770238398397
            ]
        }
    },
    {
        "description": "Strażacka",
        "locationID": "9f7f60c7-7f3e-4977-b334-4a87dbab1e0a",
        "name": "",
        "officialNumber": "0000000000675",
        "stopRadius": 0,
        "gpsLocation": {
            "type": "Point",
            "coordinates": [
                19.2862790822983,
                50.7021726824923
            ]
        }
    },
    {
        "description": "01",
        "locationID": "1b548939-15de-4ee4-b408-cdcc81565ac0",
        "name": "GMINNA",
        "officialNumber": "0000000000984",
        "stopRadius": 30,
        "gpsLocation": {
            "type": "Point",
            "coordinates": [
                19.0629439529496,
                50.8301145088053
            ]
        }
    },
    {
        "description": "02",
        "locationID": "f511d7e8-692d-443a-9cd4-8aee862fd4a8",
        "name": "ORLIK-RÜCKEMANNA",
        "officialNumber": "0000000000466",
        "stopRadius": 30,
        "gpsLocation": {
            "type": "Point",
            "coordinates": [
                19.1460746506798,
                50.8046475560183
            ]
        }
    },
    {
        "description": "01",
        "locationID": "b2d7fc7e-fb4d-4575-9194-f0dc80c35e59",
        "name": "JASKRÓW - MIROWSKA",
        "officialNumber": "0000000001117",
        "stopRadius": 30,
        "gpsLocation": {
            "type": "Point",
            "coordinates": [
                19.2024537067968,
                50.8362760352866
            ]
        }
    },
    {
        "description": "01",
        "locationID": "b498c3b1-5d9e-443d-ae13-2b9dbc0837f0",
        "name": "PRZYJEMNA",
        "officialNumber": "0000000000502",
        "stopRadius": 30,
        "gpsLocation": {
            "type": "Point",
            "coordinates": [
                19.0467511117458,
                50.7487046730902
            ]
        }
    },
    {
        "description": "02",
        "locationID": "07f79dd3-7974-488f-90d4-eab681e3c0fa",
        "name": "I URZĄD SKARBOWY",
        "officialNumber": "0000000000108",
        "stopRadius": 30,
        "gpsLocation": {
            "type": "Point",
            "coordinates": [
                19.1138049960136,
                50.7985870875355
            ]
        }
    },
    {
        "description": "02",
        "locationID": "f522a1ef-ee83-400c-be6d-5c5d22a7c9e0",
        "name": "KOPALNIANA",
        "officialNumber": "0000000000326",
        "stopRadius": 30,
        "gpsLocation": {
            "type": "Point",
            "coordinates": [
                19.0548272430897,
                50.7621937850875
            ]
        }
    },
    {
        "description": "04",
        "locationID": "50846e37-c8be-4553-9be3-931760a37734",
        "name": "GNASZYN DOSPEL",
        "officialNumber": "0000000000227",
        "stopRadius": 30,
        "gpsLocation": {
            "type": "Point",
            "coordinates": [
                19.0524312126645,
                50.7968834517483
            ]
        }
    },
    {
        "description": "02",
        "locationID": "5178e5fb-5195-4321-8656-4fe37afbea1f",
        "name": "WRZOSOWA - DŁUGA",
        "officialNumber": "0000000000805",
        "stopRadius": 30,
        "gpsLocation": {
            "type": "Point",
            "coordinates": [
                19.1412734985352,
                50.7468004938949
            ]
        }
    },
    {
        "description": "Bursztynowa",
        "locationID": "a6f4a1ce-b6ff-46fd-a406-c86ad79951e0",
        "name": "",
        "officialNumber": "0000000000150",
        "stopRadius": 0,
        "gpsLocation": {
            "type": "Point",
            "coordinates": [
                19.2198474705219,
                50.8031243001012
            ]
        }
    },
    {
        "description": "01",
        "locationID": "58754972-ff0c-4a68-b9e6-636f3e133c41",
        "name": "",
        "officialNumber": "0000000000677",
        "stopRadius": 0,
        "gpsLocation": {
            "type": "Point",
            "coordinates": [
                19.2614981532097,
                50.7134868986735
            ]
        }
    },
    {
        "description": "04",
        "locationID": "16d36ab5-ae47-4b3a-ae70-9f1175c3cfc3",
        "name": "JESIENNA",
        "officialNumber": "0000000000962",
        "stopRadius": 30,
        "gpsLocation": {
            "type": "Point",
            "coordinates": [
                19.1403159499168,
                50.7706955528263
            ]
        }
    },
    {
        "description": "01",
        "locationID": "5ed97b5d-627e-4c19-9d83-562dd4eea37b",
        "name": "",
        "officialNumber": "0000000001139",
        "stopRadius": 0,
        "gpsLocation": {
            "type": "Point",
            "coordinates": [
                19.2648455500603,
                50.7308053867685
            ]
        }
    },
    {
        "description": "01",
        "locationID": "c5f04e2d-df11-48e9-ba36-6de472b7cf95",
        "name": "FALISTA",
        "officialNumber": "0000000001351",
        "stopRadius": 30,
        "gpsLocation": {
            "type": "Point",
            "coordinates": [
                19.1893641663988,
                50.8181638974248
            ]
        }
    },
    {
        "description": "04",
        "locationID": "1385f53b-e609-483d-b77e-be9eca17c280",
        "name": "DĄBIE",
        "officialNumber": "0000000000179",
        "stopRadius": 30,
        "gpsLocation": {
            "type": "Point",
            "coordinates": [
                19.1600461092372,
                50.7918330162672
            ]
        }
    },
    {
        "description": "01",
        "locationID": "593afd91-92c9-4b8f-9844-0e858de30ae4",
        "name": "CMENTARNA",
        "officialNumber": "0000000000165",
        "stopRadius": 30,
        "gpsLocation": {
            "type": "Point",
            "coordinates": [
                19.1333849834975,
                50.8233310652097
            ]
        }
    },
    {
        "description": "01",
        "locationID": "3b996802-6369-4c2d-a05c-2dcecaa3ce7b",
        "name": "DOMY STUDENCKIE",
        "officialNumber": "0000000000193",
        "stopRadius": 30,
        "gpsLocation": {
            "type": "Point",
            "coordinates": [
                19.1103184209237,
                50.8245047467403
            ]
        }
    },
    {
        "description": "01",
        "locationID": "dc301ffb-f63f-40ea-9d13-1315c98450f0",
        "name": "MIRECKIEGO",
        "officialNumber": "0000000000417",
        "stopRadius": 30,
        "gpsLocation": {
            "type": "Point",
            "coordinates": [
                19.1512370944229,
                50.7762791978963
            ]
        }
    },
    {
        "description": "02",
        "locationID": "0e2b5e0d-c5c2-4127-b8b7-27be7d0e34eb",
        "name": "NIERADA - SZKOŁA",
        "officialNumber": "0000000000729",
        "stopRadius": 30,
        "gpsLocation": {
            "type": "Point",
            "coordinates": [
                19.0903437137604,
                50.7095006518341
            ]
        }
    },
    {
        "description": "01",
        "locationID": "7bf7e68b-ebb6-4039-a67d-111daf0a2dc0",
        "name": "SŁOWACKIEGO",
        "officialNumber": "0000000000557",
        "stopRadius": 30,
        "gpsLocation": {
            "type": "Point",
            "coordinates": [
                19.1122111716906,
                50.8028600984629
            ]
        }
    },
    {
        "description": "02",
        "locationID": "80e1694c-500a-4eb5-8fdc-5238f7520976",
        "name": "CMENTARZ ŚW. ROCHA",
        "officialNumber": "0000000000175",
        "stopRadius": 30,
        "gpsLocation": {
            "type": "Point",
            "coordinates": [
                19.0866100788116,
                50.8195276518218
            ]
        }
    },
    {
        "description": "02",
        "locationID": "3471a7ee-4271-42ed-b13c-793931a7c506",
        "name": "KORCZAKA",
        "officialNumber": "0000000000331",
        "stopRadius": 30,
        "gpsLocation": {
            "type": "Point",
            "coordinates": [
                19.111491912248,
                50.8054861601735
            ]
        }
    },
    {
        "description": "02",
        "locationID": "7e5310a1-3f16-40b5-9d58-688a5a158d1c",
        "name": "POLSKIEGO CZERWONEGO KRZYŻA ",
        "officialNumber": "0000000000079",
        "stopRadius": 30,
        "gpsLocation": {
            "type": "Point",
            "coordinates": [
                19.1157522797585,
                50.8301172394567
            ]
        }
    },
    {
        "description": "01",
        "locationID": "2ecc71f6-1ef8-4d50-9919-7d09ba49744b",
        "name": "CMENTARZ KOMUNALNY",
        "officialNumber": "0000000000167",
        "stopRadius": 30,
        "gpsLocation": {
            "type": "Point",
            "coordinates": [
                19.0460461342088,
                50.8307045138455
            ]
        }
    },
    {
        "description": "01",
        "locationID": "5d2befa3-ed9a-48d9-8b6d-216612b5e1ed",
        "name": "OSTATNI GROSZ",
        "officialNumber": "0000000000060",
        "stopRadius": 30,
        "gpsLocation": {
            "type": "Point",
            "coordinates": [
                19.1273595392704,
                50.7932262859116
            ]
        }
    },
    {
        "description": "02",
        "locationID": "0b053d46-c40d-4add-b282-65a129ba17ab",
        "name": "JURAJSKA",
        "officialNumber": "0000000000282",
        "stopRadius": 30,
        "gpsLocation": {
            "type": "Point",
            "coordinates": [
                19.1444572806358,
                50.8191870508184
            ]
        }
    },
    {
        "description": "02",
        "locationID": "36bd82fe-9fdf-4dfa-a595-5772b1839583",
        "name": "LWOWSKA",
        "officialNumber": "0000000000368",
        "stopRadius": 30,
        "gpsLocation": {
            "type": "Point",
            "coordinates": [
                19.0581612288952,
                50.8073966581153
            ]
        }
    },
    {
        "description": "01",
        "locationID": "77c6afeb-5627-4c01-aa91-1e254a79b2a1",
        "name": "WYSZYŃSKIEGO",
        "officialNumber": "0000000000636",
        "stopRadius": 30,
        "gpsLocation": {
            "type": "Point",
            "coordinates": [
                19.0841994561422,
                50.8138284463929
            ]
        }
    },
    {
        "description": "01",
        "locationID": "01d97152-b6c8-4773-bde5-3b7d2bfae3c1",
        "name": "RYDZA-ŚMIGŁEGO",
        "officialNumber": "0000000000525",
        "stopRadius": 30,
        "gpsLocation": {
            "type": "Point",
            "coordinates": [
                19.1238823942827,
                50.7809091428786
            ]
        }
    },
    {
        "description": "02",
        "locationID": "8e7da7b6-18a5-46d0-89a2-b706124fe61d",
        "name": "RYNEK WIELUŃSKI",
        "officialNumber": "0000000000530",
        "stopRadius": 30,
        "gpsLocation": {
            "type": "Point",
            "coordinates": [
                19.0970732495099,
                50.8166448061842
            ]
        }
    },
    {
        "description": "04",
        "locationID": "165a7f70-a9fe-41e2-b95d-124828d1cc6e",
        "name": "",
        "officialNumber": "0000000001338",
        "stopRadius": 0,
        "gpsLocation": {
            "type": "Point",
            "coordinates": [
                19.2069835960865,
                50.8150030477511
            ]
        }
    },
    {
        "description": "01",
        "locationID": "aecc2e96-30ed-4808-9b11-fa7b0a7be419",
        "name": "GOMBROWICZA",
        "officialNumber": "0000000000231",
        "stopRadius": 30,
        "gpsLocation": {
            "type": "Point",
            "coordinates": [
                19.1343567490044,
                50.8358966493266
            ]
        }
    },
    {
        "description": "02",
        "locationID": "b8b15af8-1b55-49f2-bdeb-724e79c9d50d",
        "name": "DICKENSA",
        "officialNumber": "0000000000188",
        "stopRadius": 30,
        "gpsLocation": {
            "type": "Point",
            "coordinates": [
                19.1513240020523,
                50.8338972669506
            ]
        }
    },
    {
        "description": "01",
        "locationID": "969e050c-0dbc-4ae1-b64a-8b1883adb555",
        "name": "DĄBIE",
        "officialNumber": "0000000000063",
        "stopRadius": 30,
        "gpsLocation": {
            "type": "Point",
            "coordinates": [
                19.1609810292721,
                50.7924158392463
            ]
        }
    },
    {
        "description": "01",
        "locationID": "3a9e12a0-7322-4504-926b-0bd4c7357458",
        "name": "BIENIA",
        "officialNumber": "0000000000988",
        "stopRadius": 30,
        "gpsLocation": {
            "type": "Point",
            "coordinates": [
                19.1506721739112,
                50.7713889907936
            ]
        }
    },
    {
        "description": "01",
        "locationID": "d8bc3eae-996a-44b7-9f3b-fe57624fed1c",
        "name": "POCZESNA - POŁUDNIOWA I",
        "officialNumber": "0000000000780",
        "stopRadius": 30,
        "gpsLocation": {
            "type": "Point",
            "coordinates": [
                19.1444881260395,
                50.7149347378132
            ]
        }
    },
    {
        "description": "02",
        "locationID": "696c49fe-53cd-404c-8151-5c6e8fa81ed4",
        "name": "SŁOWACKIEGO",
        "officialNumber": "0000000000558",
        "stopRadius": 30,
        "gpsLocation": {
            "type": "Point",
            "coordinates": [
                19.1111195954115,
                50.8025793321399
            ]
        }
    },
    {
        "description": "04",
        "locationID": "bb7052cf-43d3-4355-a5dd-6efb7a9ca5fa",
        "name": "",
        "officialNumber": "0000000000442",
        "stopRadius": 0,
        "gpsLocation": {
            "type": "Point",
            "coordinates": [
                19.0885064005852,
                50.8285103182321
            ]
        }
    },
    {
        "description": "01",
        "locationID": "da26db15-cb7e-4bbb-8e54-44e32b41a587",
        "name": "DĄBROWSKIEGO - SĄDY",
        "officialNumber": "0000000000182",
        "stopRadius": 30,
        "gpsLocation": {
            "type": "Point",
            "coordinates": [
                19.1124865867409,
                50.8164115958222
            ]
        }
    },
    {
        "description": "02",
        "locationID": "2fc34ad9-f3eb-4612-9b8b-5ae3d0d2ed4d",
        "name": "KOMORNIKI",
        "officialNumber": "0000000001313",
        "stopRadius": 30,
        "gpsLocation": {
            "type": "Point",
            "coordinates": [
                19.1808474853422,
                50.8194555168462
            ]
        }
    },
    {
        "description": "02",
        "locationID": "6295eb6c-4662-45d2-8b5b-9370eafbe757",
        "name": "KUCELIN - HUTA",
        "officialNumber": "",
        "stopRadius": 50,
        "gpsLocation": null
    },
    {
        "description": "01",
        "locationID": "01f952e2-773b-4a38-befb-648d9a33c7b5",
        "name": "RATUSZ",
        "officialNumber": "0000000001406",
        "stopRadius": 50,
        "gpsLocation": {
            "type": "Point",
            "coordinates": [
                19.1131746768951,
                50.8115211766299
            ]
        }
    },
    {
        "description": "02",
        "locationID": "9f92c34e-bfcc-449d-a666-2bd86dca3fdb",
        "name": "ŁANOWA",
        "officialNumber": "0000000000569",
        "stopRadius": 30,
        "gpsLocation": {
            "type": "Point",
            "coordinates": [
                19.1641979821346,
                50.7991418992619
            ]
        }
    },
    {
        "description": "02",
        "locationID": "4784b7b2-0d2c-4661-acae-4f2814613c71",
        "name": "RUTKIEWICZ",
        "officialNumber": "0000000000524",
        "stopRadius": 30,
        "gpsLocation": {
            "type": "Point",
            "coordinates": [
                19.1233402087317,
                50.7792001660213
            ]
        }
    },
    {
        "description": "01",
        "locationID": "9eed801a-89cc-4021-9cd1-32a512c91894",
        "name": "WYGODA",
        "officialNumber": "0000000000629",
        "stopRadius": 30,
        "gpsLocation": {
            "type": "Point",
            "coordinates": [
                19.0395261241088,
                50.7405783950205
            ]
        }
    },
    {
        "description": "03",
        "locationID": "987be6d7-e448-48b9-a47c-5a9ca676d561",
        "name": "STRADOM - DWORZEC PKP",
        "officialNumber": "0000000000201",
        "stopRadius": 30,
        "gpsLocation": {
            "type": "Point",
            "coordinates": [
                19.1079248337112,
                50.7978831915822
            ]
        }
    },
    {
        "description": "02",
        "locationID": "a12e9963-dce1-4ef4-8ced-6fc21bb57b23",
        "name": "MAZURY",
        "officialNumber": "0000000000714",
        "stopRadius": 30,
        "gpsLocation": {
            "type": "Point",
            "coordinates": [
                19.088106751442,
                50.717072023294
            ]
        }
    },
    {
        "description": "01",
        "locationID": "4003c6f5-af16-4575-8322-8bde4e1e4971",
        "name": "KORFANTEGO",
        "officialNumber": "0000000001054",
        "stopRadius": 30,
        "gpsLocation": {
            "type": "Point",
            "coordinates": [
                19.1824036843537,
                50.7859273799632
            ]
        }
    },
    {
        "description": "04",
        "locationID": "2cb52498-f991-4ec2-bdaf-892b6ea9733b",
        "name": "BUKOWA",
        "officialNumber": "0000000001176",
        "stopRadius": 30,
        "gpsLocation": {
            "type": "Point",
            "coordinates": [
                19.1290104389191,
                50.7833219356272
            ]
        }
    },
    {
        "description": "02",
        "locationID": "98dbf5bd-5333-4089-ab45-f6bc9ec00acf",
        "name": "",
        "officialNumber": "0000000000708",
        "stopRadius": 0,
        "gpsLocation": {
            "type": "Point",
            "coordinates": [
                19.2737853527069,
                50.7770731968842
            ]
        }
    },
    {
        "description": "01",
        "locationID": "d69b1b10-af5a-4d11-bf29-204de654b6ed",
        "name": "HOTEL IBIS",
        "officialNumber": "0000000001393",
        "stopRadius": 50,
        "gpsLocation": {
            "type": "Point",
            "coordinates": [
                19.134777777777778,
                50.818
            ]
        }
    },
    {
        "description": "02",
        "locationID": "25fd5d6a-6409-4a19-9459-d8ccd87201ee",
        "name": "ZŁOTA GÓRA I",
        "officialNumber": "0000000001215",
        "stopRadius": 30,
        "gpsLocation": {
            "type": "Point",
            "coordinates": [
                19.1579836606979,
                50.8150869348485
            ]
        }
    },
    {
        "description": "01",
        "locationID": "781c2183-6b20-4da5-ad14-487af91ebf24",
        "name": "IKARA",
        "officialNumber": "0000000001205",
        "stopRadius": 30,
        "gpsLocation": {
            "type": "Point",
            "coordinates": [
                19.0582386642024,
                50.8325435237215
            ]
        }
    },
    {
        "description": "02",
        "locationID": "a16c8d76-c494-41b3-8526-60c574f6ac86",
        "name": "MAKUSZYŃSKIEGO",
        "officialNumber": "0000000001076",
        "stopRadius": 30,
        "gpsLocation": {
            "type": "Point",
            "coordinates": [
                19.1469436883926,
                50.8510783840566
            ]
        }
    },
    {
        "description": "01",
        "locationID": "e8dc7cb3-5e51-4623-bcac-53ab30e15e7f",
        "name": "EKONOMICZNA",
        "officialNumber": "0000000001339",
        "stopRadius": 30,
        "gpsLocation": {
            "type": "Point",
            "coordinates": [
                19.0261249244213,
                50.7599550601169
            ]
        }
    },
    {
        "description": "04",
        "locationID": "1188093c-cfb0-48f1-b845-69d0e0e813ce",
        "name": "II ALEJA NAJŚWIĘTSZEJ MARYI PANNY",
        "officialNumber": "0000000000255",
        "stopRadius": 30,
        "gpsLocation": {
            "type": "Point",
            "coordinates": [
                19.1195282163071,
                50.8117583513258
            ]
        }
    },
    {
        "description": "01",
        "locationID": "640bbfa8-78e9-4da5-a5d9-7ce5672678a1",
        "name": "MŁYNARSKA",
        "officialNumber": "0000000001278",
        "stopRadius": 30,
        "gpsLocation": {
            "type": "Point",
            "coordinates": [
                19.1429980547643,
                50.829827557936
            ]
        }
    },
    {
        "description": "01",
        "locationID": "f667ed93-2713-44ff-80f9-88e10ae7419d",
        "name": "BRONIEWSKIEGO",
        "officialNumber": "0000000000143",
        "stopRadius": 30,
        "gpsLocation": {
            "type": "Point",
            "coordinates": [
                19.1108305390378,
                50.8281270598861
            ]
        }
    },
    {
        "description": "01",
        "locationID": "73d22028-c324-4e62-bf36-919fb05a8668",
        "name": "NOWOBIALSKA",
        "officialNumber": "0000000001160",
        "stopRadius": 30,
        "gpsLocation": {
            "type": "Point",
            "coordinates": [
                19.0884854127257,
                50.8283901207483
            ]
        }
    },
    {
        "description": "01",
        "locationID": "042a34cb-1141-49d1-9e6c-2471b44a4917",
        "name": "NOWA WIEŚ II",
        "officialNumber": "0000000000742",
        "stopRadius": 30,
        "gpsLocation": {
            "type": "Point",
            "coordinates": [
                19.1684583662135,
                50.7252971627777
            ]
        }
    },
    {
        "description": "02",
        "locationID": "f5fe541d-62a6-42a8-a514-1ab7660bbd6f",
        "name": "ŻARECKA",
        "officialNumber": "0000000001187",
        "stopRadius": 30,
        "gpsLocation": {
            "type": "Point",
            "coordinates": [
                19.1573265194893,
                50.7743958796133
            ]
        }
    },
    {
        "description": "01",
        "locationID": "f5379774-b18e-4d1f-ade7-db266e912632",
        "name": "HUTA - WYDZIAŁ TRANSPORTU",
        "officialNumber": "0000000001290",
        "stopRadius": 30,
        "gpsLocation": {
            "type": "Point",
            "coordinates": [
                19.1922951785647,
                50.7652781202679
            ]
        }
    },